[{"lat":"43.1176315","lng":"5.8030803","id":7584169,"name":"4.8","description":"Sanary-sur-Mer","address":"8 Rue Gabriel Péri","country":"France","city":"Sanary Sur Mer","postal":"83110","priority":2},{"lat":"45.7626805","lng":"4.8346954","id":7584168,"name":"BLUSH-IT","description":"Lyon","address":"3 Rue des Quatre Chapeaux","country":"France","city":"Lyon","postal":"69100","priority":2},{"lat":"44.536788","lng":"4.7465513","id":7584164,"name":"HARRY & SALLY","description":"Montélimar","address":"171 Route de Marseille","country":"France","city":"Montélimar","postal":"26200","priority":2},{"lat":"44.2251","lng":"6.9314","id":9637195,"name":"LA BOUTIQUE D'EMILY","description":"Auron","address":"Place Centrale","country":"France","city":"Saint-Étienne-de-Tinée","postal":"06660","priority":2},{"lat":"48.9589149","lng":"2.8800463","id":7584161,"name":"LE VESTIAIRE DES COPINES","description":"Meaux","address":"26 Rue du Grand Cerf","country":"France","city":"Meaux","postal":"77100","priority":2},{"lat":"48.8127449","lng":"3.0833547","id":7584162,"name":"LE VESTIAIRE DES COPINES","description":"Coulommiers","address":"25 Rue de la Pêcherie","country":"France","city":"Coulommiers","postal":"77120","priority":2},{"lat":"48.881575","lng":"2.2960282","id":7584160,"name":"MARANDURIE CONSEIL STORE","description":"Paris, Niel","address":"34 Avenue Niel","country":"France","city":"Paris","postal":"75017","priority":1},{"lat":"48.8688738","lng":"2.3038734","id":7584165,"name":"MICHA","description":"Paris, Marboeuf","address":"25 Rue Marboeuf","country":"France","city":"Paris","postal":"75008","priority":1},{"lat":"17.8968401","lng":"-62.8485197","id":7584159,"name":"MONTAIGNE MARKET ST BARTH","description":"Saint Barthélemy","address":"4 Rue du Général De Gaulle","address2":"Gustavia","country":"France","city":"Saint Barthélemy","postal":"97133","priority":2},{"lat":"43.5278388","lng":"5.4496939","id":7584158,"name":"MUSE","description":"Aix en Provence","address":"21 Rue Fabrot","country":"France","city":"Aix en Provence","postal":"13100","priority":2},{"lat":"48.8792509","lng":"2.2904481","id":7584167,"name":"POUDRE A CANONS","description":"Paris, Ternes","address":"69 Avenue des Ternes","country":"France","city":"Paris","postal":"75017","priority":1},{"lat":"45.777452","lng":"3.0855616","id":7584163,"name":"TOUTES LES FILLES EN PARLENT","description":"Clermont-Ferrand","address":"Place Royale","country":"France","city":"Clermont-Ferrand","postal":"63000","priority":2},{"lat":"48.8734238","lng":"2.3205512","id":7584166,"name":"YUMI MAZAO","description":"Paris, Malesherbe","address":"39 Boulevard Malesherbes","country":"France","city":"Paris","postal":"75008","priority":1}]